{
  "generated": "2026-03-09",
  "season": "2025-2026",
  "storms": [
    {
      "id": "storm_03",
      "start_date": "2026-01-26",
      "end_date": "2026-01-27",
      "label": "Jan 26-27, 2026",
      "avg_snow_in": 17.8,
      "peak_snow_in": 18.2,
      "n_days": 2,
      "snow_field": "snow_storm_03"
    },
    {
      "id": "storm_06",
      "start_date": "2026-02-21",
      "end_date": "2026-02-24",
      "label": "Feb 21-24, 2026",
      "avg_snow_in": 16.6,
      "peak_snow_in": 21.0,
      "n_days": 3,
      "snow_field": "snow_storm_06"
    },
    {
      "id": "storm_04",
      "start_date": "2026-02-07",
      "end_date": "2026-02-08",
      "label": "Feb 7-8, 2026",
      "avg_snow_in": 5.3,
      "peak_snow_in": 8.0,
      "n_days": 2,
      "snow_field": "snow_storm_04"
    },
    {
      "id": "storm_02",
      "start_date": "2026-01-19",
      "end_date": "2026-01-19",
      "label": "Jan 19",
      "avg_snow_in": 4.7,
      "peak_snow_in": 6.4,
      "n_days": 1,
      "snow_field": "snow_storm_02"
    },
    {
      "id": "storm_01",
      "start_date": "2025-12-27",
      "end_date": "2025-12-27",
      "label": "Dec 27",
      "avg_snow_in": 2.6,
      "peak_snow_in": 3.5,
      "n_days": 1,
      "snow_field": "snow_storm_01"
    },
    {
      "id": "storm_05",
      "start_date": "2026-02-11",
      "end_date": "2026-02-11",
      "label": "Feb 11",
      "avg_snow_in": 1.6,
      "peak_snow_in": 2.5,
      "n_days": 1,
      "snow_field": "snow_storm_05"
    },
    {
      "id": "storm_07",
      "start_date": "2026-03-04",
      "end_date": "2026-03-04",
      "label": "Mar 4",
      "avg_snow_in": 1.4,
      "peak_snow_in": 2.5,
      "n_days": 1,
      "snow_field": "snow_storm_07"
    }
  ],
  "stations": {
    "seasonal": [
      {
        "id": "MA-ES-102",
        "name": "Marblehead 0.6 WNW",
        "lat": 42.48653,
        "lon": -70.87708,
        "snow": 11.9
      },
      {
        "id": "MA-ES-45",
        "name": "Nahant 0.4 N",
        "lat": 42.421767,
        "lon": -70.915447,
        "snow": 30.0
      },
      {
        "id": "MA-ES-76",
        "name": "Nahant 0.7 N",
        "lat": 42.426994,
        "lon": -70.917894,
        "snow": 35.1
      },
      {
        "id": "MA-ES-94",
        "name": "Marblehead 1.9 NNE",
        "lat": 42.50823,
        "lon": -70.852821,
        "snow": 33.3
      },
      {
        "id": "MA-MD-11",
        "name": "Cambridge 0.9 NNW",
        "lat": 42.38765,
        "lon": -71.12529,
        "snow": 0.0
      },
      {
        "id": "MA-MD-119",
        "name": "Watertown 1.1 W",
        "lat": 42.371096,
        "lon": -71.199497,
        "snow": 48.2
      },
      {
        "id": "MA-MD-120",
        "name": "Natick 1.9 NNE",
        "lat": 42.308721,
        "lon": -71.335791,
        "snow": 47.9
      },
      {
        "id": "MA-MD-123",
        "name": "Lexington 1.3 SE",
        "lat": 42.435,
        "lon": -71.209762,
        "snow": 0.0
      },
      {
        "id": "MA-MD-126",
        "name": "Melrose 0.5 NE",
        "lat": 42.460555,
        "lon": -71.053968,
        "snow": 44.5
      },
      {
        "id": "MA-MD-134",
        "name": "Somerville 0.5 SSE",
        "lat": 42.382873,
        "lon": -71.099417,
        "snow": 20.5
      },
      {
        "id": "MA-MD-182",
        "name": "Lexington 2.1 ESE",
        "lat": 42.432311,
        "lon": -71.193786,
        "snow": 34.3
      },
      {
        "id": "MA-MD-186",
        "name": "Watertown 1.1 NW",
        "lat": 42.37862,
        "lon": -71.195942,
        "snow": 0.0
      },
      {
        "id": "MA-MD-202",
        "name": "Billerica 1.9 SE",
        "lat": 42.530647,
        "lon": -71.241021,
        "snow": 23.3
      },
      {
        "id": "MA-MD-217",
        "name": "Carlisle 2.0 SE",
        "lat": 42.5095,
        "lon": -71.3273,
        "snow": 48.8
      },
      {
        "id": "MA-MD-221",
        "name": "Natick 1.3 NE",
        "lat": 42.29875,
        "lon": -71.33444,
        "snow": 30.3
      },
      {
        "id": "MA-MD-231",
        "name": "Cambridge 1.0 WNW",
        "lat": 42.38146,
        "lon": -71.13695,
        "snow": 33.6
      },
      {
        "id": "MA-MD-232",
        "name": "Winchester 1.2 SE",
        "lat": 42.442484,
        "lon": -71.128143,
        "snow": 56.0
      },
      {
        "id": "MA-MD-246",
        "name": "Winchester 0.8 W",
        "lat": 42.45094,
        "lon": -71.16315,
        "snow": 57.2
      },
      {
        "id": "MA-MD-250",
        "name": "Melrose 1.0 WNW",
        "lat": 42.459682,
        "lon": -71.077089,
        "snow": 35.7
      },
      {
        "id": "MA-MD-256",
        "name": "Lexington 0.9 ENE",
        "lat": 42.4515,
        "lon": -71.2153,
        "snow": 24.7
      },
      {
        "id": "MA-MD-44",
        "name": "Medford 1.2 W",
        "lat": 42.422759,
        "lon": -71.131843,
        "snow": 44.9
      },
      {
        "id": "MA-MD-52",
        "name": "Lexington 0.6 SW",
        "lat": 42.43983,
        "lon": -71.240478,
        "snow": 44.4
      },
      {
        "id": "MA-MD-7",
        "name": "Winchester 0.7 SE",
        "lat": 42.445941,
        "lon": -71.135843,
        "snow": 53.1
      },
      {
        "id": "MA-MD-71",
        "name": "Newton 2.2 NNW",
        "lat": 42.359939,
        "lon": -71.225982,
        "snow": 0.0
      },
      {
        "id": "MA-NF-54",
        "name": "Quincy 1.2 W",
        "lat": 42.259033,
        "lon": -71.030317,
        "snow": 0.0
      },
      {
        "id": "MA-NF-65",
        "name": "Milton 1.3 N",
        "lat": 42.262403,
        "lon": -71.080002,
        "snow": 57.2
      },
      {
        "id": "MA-NF-68",
        "name": "Quincy 1.5 SSE",
        "lat": 42.24,
        "lon": -71.0,
        "snow": 61.3
      },
      {
        "id": "MA-NF-85",
        "name": "Wellesley 1.4 WNW",
        "lat": 42.311245,
        "lon": -71.311746,
        "snow": 0.0
      },
      {
        "id": "MA-NF-94",
        "name": "Needham 1.0 SE",
        "lat": 42.269888,
        "lon": -71.22722,
        "snow": 30.7
      },
      {
        "id": "MA-PL-36",
        "name": "Hingham 0.8 ESE",
        "lat": 42.230932,
        "lon": -70.874486,
        "snow": 0.0
      },
      {
        "id": "MA-SF-10",
        "name": "Chelsea 0.8 N",
        "lat": 42.4073,
        "lon": -71.0357,
        "snow": 60.8
      },
      {
        "id": "MA-SF-31",
        "name": "Boston 6.5 SW",
        "lat": 42.2927,
        "lon": -71.1456,
        "snow": 36.6
      },
      {
        "id": "MA-SF-38",
        "name": "Boston 3.1 SW",
        "lat": 42.2874,
        "lon": -71.1128,
        "snow": 24.2
      },
      {
        "id": "MA-SF-41",
        "name": "Boston 2.6 WSW",
        "lat": 42.2983,
        "lon": -71.1107,
        "snow": 44.3
      }
    ]
  }
}